{
  "sights": [
    {
      "name": "Tihanyi Apátság",
      "city": "Tihany",
      "lat": 46.9131,
      "lng": 17.8863,
      "img": "images/tihany.jpg"
    },
    {
      "name": "Pannonhalmi Főapátság",
      "city": "Pannonhalma",
      "lat": 47.5520,
      "lng": 17.7580,
      "img": "images/pannonhalma.jpg"
    },
    {
      "name": "Halászbástya",
      "city": "Budapest",
      "lat": 47.5020,
      "lng": 19.0349,
      "img": "images/halaszbastya.jpg"
    },
    {
      "name": "Parlament",
      "city": "Budapest",
      "lat": 47.5076,
      "lng": 19.0452,
      "img": "images/parlament.jpg"
    },
    {
      "name": "Buda Várnegyed",
      "city": "Budapest",
      "lat": 47.4952,
      "lng": 19.0399,
      "img": "images/budavar.jpg"
    },
    {
      "name": "Hősök tere",
      "city": "Budapest",
      "lat": 47.5145,
      "lng": 19.0779,
      "img": "images/hosoktere.jpg"
    },
    {
      "name": "Szegedi Dóm",
      "city": "Szeged",
      "lat": 46.2480,
      "lng": 20.1482,
      "img": "images/szegedidom.jpg"
    },
    {
      "name": "Lillafüredi Palotaszálló",
      "city": "Lillafüred",
      "lat": 48.1011,
      "lng": 20.6496,
      "img": "images/lillafured.jpg"
    },
    {
      "name": "Aggteleki Cseppkőbarlang",
      "city": "Aggtelek",
      "lat": 48.4663,
      "lng": 20.5014,
      "img": "images/aggtelek.jpg"
    },
    {
      "name": "Esztergomi Bazilika",
      "city": "Esztergom",
      "lat": 47.8038,
      "lng": 18.7401,
      "img": "images/esztergom.jpg"
    },
    {
      "name": "Visegrádi Fellegvár",
      "city": "Visegrád",
      "lat": 47.7856,
      "lng": 18.9728,
      "img": "images/visegrad.jpg"
    },
    {
      "name": "Soproni Tűztorony",
      "city": "Sopron",
      "lat": 47.6860,
      "lng": 16.5890,
      "img": "images/sopron.jpg"
    },
    {
      "name": "Tapolcai Tavasbarlang",
      "city": "Tapolca",
      "lat": 46.8803,
      "lng": 17.4416,
      "img": "images/tapolca.jpg"
    },
    {
      "name": "Hollókő Ófalu",
      "city": "Hollókő",
      "lat": 47.9964,
      "lng": 19.6003,
      "img": "images/holloko.jpg"
    },
    {
      "name": "Bükki Nemzeti Park",
      "city": "Eger környéke",
      "lat": 48.0700,
      "lng": 20.4500,
      "img": "images/bukk.jpg"
    },
    {
      "name": "Nyíregyházi Állatpark",
      "city": "Nyíregyháza",
      "lat": 47.9800,
      "lng": 21.7200,
      "img": "images/nyiregyhaza_zoo.jpg"
    },
    {
      "name": "Hévízi-tó",
      "city": "Hévíz",
      "lat": 46.7880,
      "lng": 17.1847,
      "img": "images/heviz.jpg"
    },
    {
      "name": "Szigetvári Vár",
      "city": "Szigetvár",
      "lat": 46.0480,
      "lng": 17.8030,
      "img": "images/szigetvar.jpg"
    },
    {
      "name": "Fertőrákosi Barlangszínház",
      "city": "Fertőrákos",
      "lat": 47.7344,
      "lng": 16.6509,
      "img": "images/fertorakos.jpg"
    },
    {
      "name": "Tatai Öreg-tó",
      "city": "Tata",
      "lat": 47.6482,
      "lng": 18.3183,
      "img": "images/tata.jpg"
    },
    {
      "name": "Siroki Vár",
      "city": "Sirok",
      "lat": 47.9334,
      "lng": 20.2021,
      "img": "images/sirok.jpg"
    },
    {
      "name": "Egerszalóki Sódomb",
      "city": "Egerszalók",
      "lat": 47.8739,
      "lng": 20.3339,
      "img": "images/egerszalok.jpg"
    },
    {
      "name": "Fátyol-vízesés",
      "city": "Szilvásvárad",
      "lat": 48.1045,
      "lng": 20.3922,
      "img": "images/fatyol.jpg"
    },
    {
      "name": "Debreceni Nagytemplom",
      "city": "Debrecen",
      "lat": 47.5316,
      "lng": 21.6240,
      "img": "images/debrecen.jpg"
    },
    {
      "name": "Gyulai Vár",
      "city": "Gyula",
      "lat": 46.6480,
      "lng": 21.2780,
      "img": "images/gyula.jpg"
    },
    {
      "name": "Veszprémi Állatkert",
      "city": "Veszprém",
      "lat": 47.1014,
      "lng": 17.9030,
      "img": "images/veszprem_zoo.jpg"
    },
    {
      "name": "Zempléni Kalandpark",
      "city": "Sátoraljaújhely",
      "lat": 48.3950,
      "lng": 21.6610,
      "img": "images/zemplen.jpg"
    },
    {
      "name": "Kékestető",
      "city": "Mátraháza",
      "lat": 47.8727,
      "lng": 20.0080,
      "img": "images/kekesteto.jpg"
    },
    {
      "name": "Balatonfüredi Tagore sétány",
      "city": "Balatonfüred",
      "lat": 46.9591,
      "lng": 17.8857,
      "img": "images/tagore.jpg"
    },
    {
      "name": "Badacsonyi kilátó",
      "city": "Badacsony",
      "lat": 46.8001,
      "lng": 17.5131,
      "img": "images/badacsony.jpg"
    },
    {
      "name": "Zalakarosi Fürdő",
      "city": "Zalakaros",
      "lat": 46.5512,
      "lng": 17.1277,
      "img": "images/zalakaros.jpg"
    },
    {
      "name": "Kalocsa Érseki Palota",
      "city": "Kalocsa",
      "lat": 46.5262,
      "lng": 18.9862,
      "img": "images/kalocsa.jpg"
    },
    {
      "name": "Pécsi Dóm",
      "city": "Pécs",
      "lat": 46.0767,
      "lng": 18.2280,
      "img": "images/pecs_dom.jpg"
    },
    {
      "name": "Miskolctapolcai Barlangfürdő",
      "city": "Miskolctapolca",
      "lat": 48.0724,
      "lng": 20.7644,
      "img": "images/tapolca_furdo.jpg"
    },
    {
      "name": "Hortobágyi Kilenclyukú híd",
      "city": "Hortobágy",
      "lat": 47.5800,
      "lng": 21.1660,
      "img": "images/hortobagy.jpg"
    },
    {
      "name": "Szentendrei Skanzen",
      "city": "Szentendre",
      "lat": 47.6642,
      "lng": 19.0356,
      "img": "images/szentendre.jpg"
    },
    {
      "name": "Károlyi-kastély",
      "city": "Füzérradvány",
      "lat": 48.4360,
      "lng": 21.5420,
      "img": "images/fuzerradvany.jpg"
    },
    {
      "name": "Füzéri Vár",
      "city": "Füzér",
      "lat": 48.4640,
      "lng": 21.4580,
      "img": "images/fuzer.jpg"
    },
    {
      "name": "Keszthelyi Festetics-kastély",
      "city": "Keszthely",
      "lat": 46.7680,
      "lng": 17.2430,
      "img": "images/keszthely.jpg"
    },
    {
      "name": "Bory-vár",
      "city": "Székesfehérvár",
      "lat": 47.2050,
      "lng": 18.4080,
      "img": "images/boryvar.jpg"
    },
    {
      "name": "Diósgyőri Vár",
      "city": "Miskolc",
      "lat": 48.1070,
      "lng": 20.7080,
      "img": "images/diosgyor.jpg"
    },
    {
      "name": "Tokaji borvidék",
      "city": "Tokaj",
      "lat": 48.1160,
      "lng": 21.4080,
      "img": "images/tokaj.jpg"
    },
    {
      "name": "Szegedi Füvészkert",
      "city": "Szeged",
      "lat": 46.2380,
      "lng": 20.1160,
      "img": "images/szeged_fuveszkert.jpg"
    },
    {
      "name": "Pannonhalmi Arborétum",
      "city": "Pannonhalma",
      "lat": 47.5525,
      "lng": 17.7550,
      "img": "images/pannonhalma_arboretum.jpg"
    },
    {
      "name": "Gödöllői Királyi Kastély",
      "city": "Gödöllő",
      "lat": 47.5965,
      "lng": 19.3569,
      "img": "images/godollo.jpg"
    },
    {
      "name": "Várkert Bazár",
      "city": "Budapest",
      "lat": 47.4951,
      "lng": 19.0413,
      "img": "images/varkert.jpg"
    },
    {
      "name": "Zsolnay Negyed",
      "city": "Pécs",
      "lat": 46.0760,
      "lng": 18.2330,
      "img": "images/zsolnay.jpg"
    }
  ]
}
